{
"type": "FeatureCollection",
                                                                                
"features": [

{ "type": "Feature", "properties": { "park_name": "Monkman Provincial Park", "watershed": "Pine", "eco_value": "11.8", "area": "629", "area_to_perim": "4076", "pl_length": "65.13", "flow": "627.75", "pl_distance": "45.73", "risk": "20" }, "geometry": {"type": "Point", "coordinates":[-121.2298059013,54.59907555]} },
{ "type": "Feature", "properties": { "park_name": "Gwillim Lake Provincial Park", "watershed": "Pine", "eco_value": "15.4", "area": "325", "area_to_perim": "2716", "pl_length": "65.13", "flow": "627.75", "pl_distance": "205.43", "risk": "20" }, "geometry": {"type": "Point", "coordinates":[-121.228832211697,55.41428325]} },
{ "type": "Feature", "properties": { "park_name": "Fraser River Provincial Park", "watershed": "Fraser", "eco_value": "18", "area": "49", "area_to_perim": "1202", "pl_length": "64.49", "flow": "4942.14", "pl_distance": "150.84", "risk": "20" }, "geometry": {"type": "Point", "coordinates":[-122.726848690696,53.4827974]} },
{ "type": "Feature", "properties": { "park_name": "Morice Lake Provincial Park", "watershed": "Bulkley", "eco_value": "10.3", "area": "525", "area_to_perim": "2889", "pl_length": "118.64", "flow": "287.33", "pl_distance": "10.21", "risk": "18" }, "geometry": {"type": "Point", "coordinates":[-127.597145755239,53.97063935]} },
{ "type": "Feature", "properties": { "park_name": "Sutherland River Provincial Park", "watershed": "Stuart", "eco_value": "19.8", "area": "48", "area_to_perim": "1011", "pl_length": "51.87", "flow": "303.05", "pl_distance": "0.05", "risk": "18" }, "geometry": {"type": "Point", "coordinates":[-124.989365559975,54.4523084]} },
{ "type": "Feature", "properties": { "park_name": "Churn Creek Protected Area", "watershed": "Fraser", "eco_value": "9.4", "area": "369", "area_to_perim": "1420", "pl_length": "64.49", "flow": "4942.14", "pl_distance": "435.31", "risk": "18" }, "geometry": {"type": "Point", "coordinates":[-122.382005728521,51.46219]} },
{ "type": "Feature", "properties": { "park_name": "Edge Hills Provincial Park", "watershed": "Fraser", "eco_value": "12.8", "area": "118", "area_to_perim": "1522", "pl_length": "64.49", "flow": "4942.14", "pl_distance": "503.81", "risk": "18" }, "geometry": {"type": "Point","coordinates":[-121.850207883581,51.0205643]} },
{ "type": "Feature", "properties": { "park_name": "Foch-Gilttoyees Provincial Park", "watershed": "North Coast", "eco_value": "9.8", "area": "611", "area_to_perim": "4184", "pl_length": "86.24", "flow": "47.54", "pl_distance": "106.83", "risk": "17" }, "geometry": {"type": "Point","coordinates":[-129.14311313693,53.8954049]} },
{ "type": "Feature", "properties": { "park_name": "Junction Sheep Range Provincial Park", "watershed": "Fraser", "eco_value": "6.9", "area": "48", "area_to_perim": "903", "pl_length": "64.49", "flow": "4942.14", "pl_distance": "390.37", "risk": "16" }, "geometry": {"type": "Point","coordinates":[-122.499573911786,51.8079066]} },
{ "type": "Feature", "properties": { "park_name": "Babine River Corridor Provincial Park", "watershed": "Babine", "eco_value": "21.9", "area": "154", "area_to_perim": "938", "pl_length": "41.44", "flow": "51.78", "pl_distance": "177.37", "risk": "16" }, "geometry": {"type": "Point","coordinates":[-126.811782523282,55.5646931]} },
{ "type": "Feature", "properties": { "park_name": "French Bar Creek Provincial Park", "watershed": "Fraser", "eco_value": "8", "area": "12", "area_to_perim": "552", "pl_length": "64.49", "flow": "4942.14", "pl_distance": "472.95", "risk": "15" }, "geometry": {"type": "Point","coordinates":[-122.210423397412,51.22698445]} },
{ "type": "Feature", "properties": { "park_name": "Fort George Canyon Provincial Park", "watershed": "Fraser", "eco_value": "12.5", "area": "2", "area_to_perim": "234", "pl_length": "64.49", "flow": "4942.14", "pl_distance": "127.62", "risk": "15" }, "geometry": {"type": "Point","coordinates":[-122.723498784659,53.6792064]} },
{ "type": "Feature", "properties": { "park_name": "Foch-Gilttoyees Protected Area", "watershed": "North Coast", "eco_value": "15", "area": "1", "area_to_perim": "184", "pl_length": "86.24", "flow": "47.54", "pl_distance": "106.83", "risk": "14" }, "geometry": {"type": "Point","coordinates":[-129.024581117536,53.77413735]} },
{ "type": "Feature", "properties": { "park_name": "Swan Creek Protected Area", "watershed": "Zymoetz", "eco_value": "17", "area": "3", "area_to_perim": "411", "pl_length": "18.09", "flow": "285.1", "pl_distance": "33.26", "risk": "14" }, "geometry": {"type": "Point","coordinates":[-128.094695341986,54.45040835]} },
{ "type": "Feature", "properties": { "park_name": "Burnie River Protected Area", "watershed": "Zymoetz", "eco_value": "11.1", "area": "23", "area_to_perim": "972", "pl_length": "18.09", "flow": "285.1", "pl_distance": "0.01", "risk": "13" }, "geometry": {"type": "Point","coordinates":[-127.807120948501,54.18779855] } },
{ "type": "Feature", "properties": { "park_name": "Peace River Corridor Provincial Park", "watershed": "Peace", "eco_value": "10.9", "area": "20", "area_to_perim": "545", "pl_length": "47.58", "flow": "627.75", "pl_distance": "265.13", "risk": "13" }, "geometry": {"type": "Point","coordinates":[-120.238518831959,56.1069658] } },
{ "type": "Feature", "properties": { "park_name": "Kiskatinaw River Provincial Park", "watershed": "Peace", "eco_value": "13", "area": "2", "area_to_perim": "337", "pl_length": "47.58", "flow": "627.75", "pl_distance": "270.32", "risk": "12" }, "geometry": {"type": "Point","coordinates":[-120.152854843142,56.09006555]} },
{ "type": "Feature", "properties": { "park_name": "Rainbow Alley Provincial Park", "watershed": "Babine", "eco_value": "16", "area": "1", "area_to_perim": "196", "pl_length": "41.44", "flow": "51.78", "pl_distance": "165.32", "risk": "12" }, "geometry": {"type": "Point","coordinates":[-126.643903621108,55.3352414]} },
{ "type": "Feature", "properties": { "park_name": "Beatton River Provincial Park", "watershed": "Peace", "eco_value": "9.2", "area": "2", "area_to_perim": "219", "pl_length": "47.58", "flow": "627.75", "pl_distance": "255.25", "risk": "11" }, "geometry": {"type": "Point","coordinates":[-120.38515560455,56.10249415]} },
{ "type": "Feature", "properties": { "park_name": "Babine Lake Marine Provincial Park - Smithers Landing Site", "watershed": "Babine", "eco_value": "8", "area": "1", "area_to_perim": "215", "pl_length": "41.44", "flow": "51.78", "pl_distance": "131.79", "risk": "10" }, "geometry": {"type": "Point","coordinates":[-126.541085535871,55.06903095]} }

]
}